[
  {
    "key": "LINK-MG24",
    "latitude": -9.628236270465626,
    "longitude": -35.71661345767199,
    "name": "MACEIO - AL"
  },
  {
    "key": "LINK-MG50",
    "latitude": -3.091260665353382,
    "longitude": -59.94904268465602,
    "name": "MANAUS - AM"
  },
  {
    "key": "LINK-MG15",
    "latitude": -12.97741185250066,
    "longitude": -38.47934371427795,
    "name": "SALVADOR - BA"
  },
  {
    "key": "LINK-MG16",
    "latitude": -13.007066765086304,
    "longitude": -38.46119349206377,
    "name": "SALVADOR - BA"
  },
  {
    "key": "LINK-MG17",
    "latitude": -12.232059181447694,
    "longitude": -38.951967976719814,
    "name": "FEIRA DE SANTANA - BA"
  },
  {
    "key": "LINK-MG39",
    "latitude": -14.887493294937022,
    "longitude": -40.844318657671984,
    "name": "VITÓRIA DA CONQUISTA - BA"
  },
  {
    "key": "LINK-MG48",
    "latitude": -12.905481090316169,
    "longitude": -38.353168411506836,
    "name": "SALVADOR - BA"
  },
  {
    "key": "LINK-MG04",
    "latitude": -3.7428041631240614,
    "longitude": -38.5111461,
    "name": "FORTALEZA - CE"
  },
  {
    "key": "LINK-MG25",
    "latitude": -3.8234648158921063,
    "longitude": -38.57837043009282,
    "name": "FORTALEZA - CE"
  },
  {
    "key": "LINK-MG03",
    "latitude": -15.805214475069585,
    "longitude": -47.95935074603188,
    "name": "BRASÍLIA - DF"
  },
  {
    "key": "LINK-PG01",
    "latitude": -20.348261916374238,
    "longitude": -40.32027820370387,
    "name": "VILA VELHA - ES"
  },
  {
    "key": "LINK-MG22",
    "latitude": -16.76266473732503,
    "longitude": -49.23936598272576,
    "name": "GOIANIA - GO"
  },
 {
    "key": "LINK-MG07",
    "latitude": -10.928192697846733,
    "longitude": -37.05795883068793,
    "name": "ARACAJU - SE"
  },
 {
    "key": "LINK-PG07",
    "latitude": -20.310767517929502,
    "longitude": -40.31706271058314,
    "name": "VITÓRIA - ES"
  };
{
    "key": "LINK-PG02",
    "latitude": -20.337699280007605,
    "longitude": -40.39204369735309,
    "name": "CARIACICA - ES"
  };
{
    "key": "LINK-PG04",
    "latitude": -19.352878909207178,
    "longitude": -40.06327076348977,
    "name": "LINHARES - ES"
  };
{
    "key": "LINK-PG05",
    "latitude": -20.827674900611427,
    "longitude": -41.15784955767198,
    "name": "CACHOEIRO DE ITAPEMIRIM - ES"
  };
{
    "key": "LINK-PG06",
    "latitude": -20.217600191559736,
    "longitude": -40.269632864546715,
    "name": "SERRA - ES"
  };
{
    "key": "LINK-PG07",
    "latitude": -20.31073733265635,
    "longitude": -40.317073439419126,
    "name": "VITÓRIA - ES"
  };
{
    "key": "LINK-MG27",
    "latitude": -16.699601414513275,
    "longitude": -49.26876316071413,
    "name": "GOIANIA - GO"
  };
{
    "key": "LINK-MG36",
    "latitude": -16.729951075880667,
    "longitude": -49.263891639814354,
    "name": "GOIANIA - GO"
  };
{
    "key": "LINK-MG32",
    "latitude": -2.57390999760949,
    "longitude": -44.24290535582004,
    "name": "SÃO LUIZ - MA"
  };
{
    "key": "LINK-MG60",
    "latitude": -5.534524611127679,
    "longitude": -47.4709761411045,
    "name": "IMPERATRIZ - MA"
  }
]
