{
  "type": "FeatureCollection",
  "features": [
    {
      "type": "Feature",
      "properties": {
        "key": "MG24",
        "name": "MACEIO - AL"
      },
      "geometry": {
        "type": "Point",
        "coordinates": [-35.71661345767199, -9.628236270465626]
      }
    },
    {
      "type": "Feature",
      "properties": {
        "key": "MG50",
        "name": "MANAUS - AM"
      },
      "geometry": {
        "type": "Point",
        "coordinates": [-59.94904268465602, -3.091260665353382]
      }
    },
    {
      "type": "Feature",
      "properties": {
        "key": "MG15",
        "name": "SALVADOR - BA"
      },
      "geometry": {
        "type": "Point",
        "coordinates": [-38.47934371427795, -12.97741185250066]
      }
    },
    {
      "type": "Feature",
      "properties": {
        "key": "MG16",
        "name": "SALVADOR - BA"
      },
      "geometry": {
        "type": "Point",
        "coordinates": [-38.46119349206377, -13.007066765086304]
      }
    },
    {
      "type": "Feature",
      "properties": {
        "key": "MG17",
        "name": "FEIRA DE SANTANA - BA"
      },
      "geometry": {
        "type": "Point",
        "coordinates": [-38.951967976719814, -12.232059181447694]
      }
    },
    {
      "type": "Feature",
      "properties": {
        "key": "MG39",
        "name": "VITÓRIA DA CONQUISTA - BA"
      },
      "geometry": {
        "type": "Point",
        "coordinates": [-40.844318657671984, -14.887493294937022]
      }
    },
    {
      "type": "Feature",
      "properties": {
        "key": "MG48",
        "name": "SALVADOR - BA"
      },
      "geometry": {
        "type": "Point",
        "coordinates": [-38.353168411506836, -12.905481090316169]
      }
    },
    {
      "type": "Feature",
      "properties": {
        "key": "MG04",
        "name": "FORTALEZA - CE"
      },
      "geometry": {
        "type": "Point",
        "coordinates": [-38.5111461, -3.7428041631240614]
      }
    },
    {
      "type": "Feature",
      "properties": {
        "key": "MG25",
        "name": "FORTALEZA - CE"
      },
      "geometry": {
        "type": "Point",
        "coordinates": [-38.57837043009282, -3.8234648158921063]
      }
    },
    {
      "type": "Feature",
      "properties": {
        "key": "MG03",
        "name": "BRASÍLIA - DF"
      },
      "geometry": {
        "type": "Point",
        "coordinates": [-47.95935074603188, -15.805214475069585]
      }
    },
    {
      "type": "Feature",
      "properties": {
        "key": "PG01",
        "name": "VILA VELHA - ES"
      },
      "geometry": {
        "type": "Point",
        "coordinates": [-40.32027820370387, -20.348261916374238]
      }
    },
    {
      "type": "Feature",
      "properties": {
        "key": "MG22",
        "name": "VILA VELHA - ES"
      },
      "geometry": {
        "type": "Point",
        "coordinates": [-16.76266473732503, -49.23936598272576]
      }
    }
  ]
}
